City,Country,Lat,Lon,Date,Max Temp (cs),Humidity,Cloudiness,Wind Speed (mph)
Bluff,NZ,-46.6,168.3333,1611878714,8.89,80,100,3.58
Qixingtai,CN,30.4135,111.8874,1611878840,4.54,69,0,1.53
Cape Town,ZA,-33.9258,18.4232,1611878172,17.22,82,0,2.06
Kahului,US,20.8947,-156.47,1611878840,27.0,54,40,11.32
Pevek,RU,69.7008,170.3133,1611878841,-29.58,87,49,0.77
Vaini,TO,-21.2,-175.2,1611878841,26.0,94,75,9.77
Okhotsk,RU,59.3833,143.3,1611878841,-24.83,79,0,2.16
Hanzhong,CN,33.0728,107.0303,1611878841,3.0,72,14,0.38
Rockport,US,28.0206,-97.0544,1611878710,14.0,67,1,5.14
Faanui,PF,-16.4833,-151.75,1611878594,27.31,67,100,2.77
Necochea,AR,-38.5473,-58.7368,1611878841,18.33,70,100,4.11
Kaitangata,NZ,-46.2817,169.8464,1611878842,10.34,74,97,5.28
Carnarvon,AU,-24.8667,113.6333,1611878622,24.0,73,0,5.66
Businga,CD,3.3333,20.8833,1611878842,21.42,86,100,0.85
Maple Creek,CA,49.9168,-109.4848,1611878842,-9.65,95,83,2.12
Biltine,TD,14.5333,20.9167,1611878842,21.31,17,30,7.1
Heiligenhafen,DE,54.3667,10.9833,1611878842,-0.24,92,89,2.4
Ushuaia,AR,-54.8,-68.3,1611878429,6.0,81,75,12.86
Atuona,PF,-9.8,-139.0333,1611878843,26.1,75,16,8.3
Griffith,US,41.5284,-87.4237,1611878843,-5.0,50,1,1.54
Sangar,RU,63.9242,127.4739,1611878843,-47.69,72,67,1.73
Rikitea,PF,-23.1203,-134.9692,1611878843,26.6,67,93,2.83
Port Macquarie,AU,-31.4333,152.9167,1611878843,23.33,99,92,0.89
Albany,US,42.6001,-73.9662,1611878789,-11.63,89,39,6.11
Balkhash,KZ,46.844,74.9804,1611878843,-10.92,92,0,3.52
Saint-Philippe,RE,-21.3585,55.7679,1611878843,25.0,69,0,3.6
Mossamedes,AO,-15.1961,12.1522,1611878844,22.97,75,99,2.61
Villahermosa,MX,17.9833,-92.9167,1611878772,24.0,88,75,3.09
Norman Wells,CA,65.282,-126.8329,1611878845,-30.77,81,16,1.81
Departamento de Maldonado,UY,-34.6667,-54.9167,1611878845,23.89,78,75,1.54
Punta Arenas,CL,-53.15,-70.9167,1611878845,8.0,61,75,8.75
Qaanaaq,GL,77.484,-69.3632,1611878845,-25.46,66,0,3.48
Longyearbyen,SJ,78.2186,15.6401,1611878646,-19.0,46,20,8.75
Bequimão,BR,-2.4489,-44.7825,1611878845,25.0,100,75,1.54
Tres Picos,MX,15.8667,-93.5333,1611878846,27.86,54,100,6.69
Kumul,CN,42.8,93.45,1611878840,-7.33,84,0,2.12
Senta,RS,45.9275,20.0772,1611878846,2.06,90,100,6.3
Torbay,CA,47.6666,-52.7314,1611878846,-4.44,93,90,4.12
Jamestown,US,42.097,-79.2353,1611878846,-7.78,86,90,8.23
Berlevåg,NO,70.8578,29.0864,1611878847,-5.01,92,100,9.41
Bredasdorp,ZA,-34.5322,20.0403,1611878847,13.0,82,2,2.06
Esperance,AU,-33.8667,121.9,1611878847,18.0,77,20,2.57
Avarua,CK,-21.2078,-159.775,1611878847,30.0,66,50,7.2
Hobyo,SO,5.3505,48.5268,1611878847,24.33,71,37,8.0
Lata,PT,40.1629,-8.3327,1611878847,13.89,100,84,0.58
Ribeira Grande,PT,38.5167,-28.7,1611878848,18.06,85,100,19.4
Summerside,CA,46.3959,-63.7876,1611878793,-4.0,86,98,2.57
Quelimane,MZ,-17.8786,36.8883,1611878848,24.88,92,2,1.42
Zmeinogorsk,RU,51.1567,82.195,1611878848,-8.06,96,99,5.62
Qaqortoq,GL,60.7167,-46.0333,1611878848,8.0,29,75,11.83
Henties Bay,NA,-22.116,14.2845,1611878848,18.26,81,35,2.28
Sawtell,AU,-30.3833,153.1,1611878849,26.0,78,90,3.09
Yellowknife,CA,62.456,-114.3525,1611878849,-28.89,76,20,1.54
Vila Franca do Campo,PT,37.7167,-25.4333,1611878849,17.22,94,75,10.29
Imeni Poliny Osipenko,RU,52.4201,136.4853,1611878849,-27.97,88,73,0.86
Port Alfred,ZA,-33.5906,26.891,1611878849,18.89,80,3,0.89
Ilulissat,GL,69.2167,-51.1,1611878849,-13.0,52,0,3.6
Gamba,GA,-2.65,10.0,1611878850,25.18,88,100,1.99
Coruripe,BR,-10.1256,-36.1756,1611878850,25.35,80,60,4.19
Birao,CF,10.2849,22.7882,1611878850,25.26,17,63,4.1
Alugan,PH,12.2188,125.4808,1611878850,26.54,75,87,5.78
Avera,US,33.194,-82.5271,1611878850,8.0,46,1,3.09
Butaritari,KI,3.0707,172.7902,1611878850,27.07,79,94,7.1
Hithadhoo,MV,-0.6,73.0833,1611878850,27.67,71,79,4.73
Tegul'det,RU,57.3064,88.1667,1611878850,-20.05,92,100,2.4
Caucayá,CO,-0.1934,-74.7819,1611878851,26.21,70,65,0.84
Itarema,BR,-2.9248,-39.9167,1611878851,26.95,76,99,5.87
Tefé,BR,-3.3542,-64.7114,1611878851,26.0,83,40,2.57
Halifax,CA,44.6453,-63.5724,1611878755,-1.67,80,40,4.12
Severo-Kuril'sk,RU,50.6789,156.125,1611878604,-2.06,92,72,3.29
Saskylakh,RU,71.9167,114.0833,1611878619,-40.68,79,40,1.89
São Filipe,CV,14.8961,-24.4956,1611878851,22.94,66,0,2.39
Castro,BR,-24.7911,-50.0119,1611878852,19.0,94,100,1.84
Mataura,NZ,-46.1927,168.8643,1611878852,8.89,80,97,3.58
Antsohihy,MG,-14.8796,47.9875,1611878852,23.84,94,76,0.44
Kibala,TD,9.1104,18.3463,1611878852,24.69,21,72,3.17
Barrow,US,71.2906,-156.7887,1611878852,-24.0,70,1,4.63
Narsaq,GL,60.9167,-46.05,1611878852,8.0,29,75,11.83
East London,ZA,-33.0153,27.9116,1611878852,20.01,77,8,4.44
Hermanus,ZA,-34.4187,19.2345,1611878714,16.8,76,20,2.63
Monywa,MM,22.1167,95.1333,1611878853,17.38,68,0,2.49
Nieves,PH,15.3274,120.9485,1611878853,22.73,79,9,3.0
Rio Grande,BR,-32.035,-52.0986,1611878853,23.89,71,100,0.89
Busselton,AU,-33.65,115.3333,1611878850,19.44,86,0,0.89
Port Keats,AU,-14.25,129.55,1611878561,27.34,83,100,4.65
Lagoa,PT,39.05,-27.9833,1611878853,17.26,87,100,14.61
Lüderitz,NA,-26.6481,15.1594,1611878853,20.53,50,0,10.8
Ishigaki,JP,24.3448,124.1572,1611878853,14.0,58,75,7.72
Pachino,IT,36.7186,15.0907,1611878854,10.0,95,17,10.6
Port Elizabeth,ZA,-33.918,25.5701,1611878854,15.0,94,0,1.54
Fuzhou,CN,26.0614,119.3061,1611878854,10.0,71,75,9.0
Touros,BR,-5.1989,-35.4608,1611878854,27.0,74,40,4.63
Sibolga,ID,1.7427,98.7792,1611878854,24.11,70,100,1.88
Lebu,CL,-37.6167,-73.65,1611878854,14.65,96,100,5.81
Cidreira,BR,-30.1811,-50.2056,1611878623,22.7,91,100,6.84
Luunja,EE,58.3558,26.8808,1611878855,-1.67,93,90,1.03
Moerai,PF,-22.4333,-151.3333,1611878855,27.24,74,89,6.88
Changping,CN,40.2186,116.2197,1611878712,-8.33,40,0,1.0
Maceió,BR,-9.6658,-35.7353,1611878855,25.0,88,75,2.57
Iqaluit,CA,63.7506,-68.5145,1611878856,-19.79,84,0,7.71
Hilo,US,19.7297,-155.09,1611878856,27.0,54,20,4.12
Cabo San Lucas,MX,22.8909,-109.9124,1611878592,24.0,53,1,3.6
Mount Isa,AU,-20.7333,139.5,1611878856,32.0,40,48,4.63
San Mateo del Mar,MX,16.2,-95.0,1611878856,25.54,65,100,17.29
San Jose,US,37.3394,-121.895,1611878812,10.56,87,90,4.12
Thompson,CA,55.7435,-97.8558,1611878642,-19.0,78,75,2.06
Calama,CL,-22.4667,-68.9333,1611878647,18.0,20,0,9.77
Lorengau,PG,-2.0226,147.2712,1611878856,29.21,72,99,3.73
Port Lincoln,AU,-34.7333,135.8667,1611878598,20.04,72,69,4.02
Stornoway,GB,58.2093,-6.3865,1611878857,3.0,87,75,9.77
Puerto Ayora,EC,-0.7393,-90.3518,1611878857,26.11,90,80,3.13
Jubbal,IN,31.1167,77.6667,1611878857,-0.99,73,1,1.55
Mar del Plata,AR,-38.0023,-57.5575,1611878593,20.07,69,100,6.39
Nelson Bay,AU,-32.7167,152.15,1611878857,20.96,89,100,7.63
Mahébourg,MU,-20.4081,57.7,1611878857,26.04,75,6,3.5
Bambous Virieux,MU,-20.3428,57.7575,1611878857,24.44,94,40,0.51
Funadhoo,MV,6.15,73.2667,1611878858,26.99,57,0,2.47
Dudhani,IN,17.3667,76.3667,1611878858,18.78,77,60,3.44
Wakema,MM,16.6,95.1833,1611878858,21.94,78,8,2.26
Oddur,SO,4.1213,43.8894,1611878858,20.82,75,0,8.92
Kapaa,US,22.0752,-159.319,1611878858,24.0,69,90,8.75
Naze,JP,28.3667,129.4833,1611878699,9.67,73,65,9.92
Bac Lieu,VN,9.285,105.7244,1611878858,23.91,77,68,6.42
Puerto Madero,MX,14.7208,-92.4215,1611878858,27.0,78,75,2.06
Coyhaique,CL,-45.5752,-72.0662,1611878693,8.37,76,32,3.51
Kasempa,ZM,-13.4584,25.8338,1611878859,17.43,95,100,2.43
Bengkulu,ID,-3.8004,102.2655,1611878628,24.04,87,99,4.58
Jiuquan,CN,39.7432,98.5174,1611878859,-7.86,69,0,0.05
Kruisfontein,ZA,-34.0033,24.7314,1611878681,13.89,88,0,0.45
Vardø,NO,70.3705,31.1107,1611878859,-7.0,63,20,10.8
Fortuna,US,40.5982,-124.1573,1611878859,10.0,93,90,1.67
Huanren,CN,41.2647,125.3667,1611878859,-19.65,85,43,0.23
Kundiawa,PG,-6.0167,144.9667,1611878859,22.34,67,91,1.58
Yakeshi,CN,49.2833,120.7333,1611878860,-33.49,83,95,1.54
Vao,NC,-22.6667,167.4833,1611878631,24.68,81,80,9.18
Brae,GB,60.3964,-1.353,1611878860,1.8,82,63,1.92
Arroyo de la Encomienda,ES,41.6096,-4.7969,1611878860,11.11,87,20,4.12
Idenao,CM,4.2475,9.0047,1611878860,25.48,78,100,0.92
Ketchikan,US,55.3422,-131.6461,1611878753,-2.0,64,1,2.06
Nālūt,LY,30.3333,10.85,1611878860,9.67,55,0,1.76
Tuktoyaktuk,CA,69.4541,-133.0374,1611878861,-35.0,68,1,2.57
New Norfolk,AU,-42.7826,147.0587,1611878861,18.33,56,95,1.79
San Bonifacio,IT,45.3969,11.2844,1611878861,1.67,42,20,0.89
Chadiza,ZM,-14.0678,32.4392,1611878861,18.92,94,100,0.28
Kununurra,AU,-15.7667,128.7333,1611878861,27.0,94,40,3.6
Bandarbeyla,SO,9.4942,50.8122,1611878709,22.22,82,5,6.85
Chokurdakh,RU,70.6333,147.9167,1611878862,-28.49,88,100,3.18
Hambantota,LK,6.1241,81.1185,1611878862,24.49,86,72,2.17
Ubari,LY,26.5921,12.7805,1611878863,8.0,51,0,1.15
Azángaro,PE,-14.9167,-70.2167,1611878863,8.92,79,88,1.05
Taoudenni,ML,22.6783,-3.9836,1611878846,19.77,26,0,7.68
Solnechnyy,RU,50.7214,136.6319,1611878863,-23.74,85,86,0.83
Srednekolymsk,RU,67.45,153.6833,1611878863,-27.64,87,100,3.91
Bayan,CN,46.0833,127.4,1611878863,-32.2,84,0,1.55
Bereket,TM,39.2446,55.5154,1611878863,7.29,54,35,3.33
Dera Bugti,PK,29.0307,69.151,1611878863,9.89,37,0,0.61
Codrington,AU,-38.2667,141.9667,1611878863,19.25,95,100,3.35
Tiksi,RU,71.6872,128.8694,1611878577,-30.09,87,99,3.19
Aklavik,CA,68.2191,-135.0107,1611878865,-32.0,75,20,2.57
Christchurch,NZ,-43.5333,172.6333,1611878739,16.0,44,75,9.26
Billings Metropolitan Area,US,45.7833,-108.5007,1611878865,-0.05,88,99,1.34
Yeppoon,AU,-23.1333,150.7333,1611878699,28.0,57,20,6.69
Katsuura,JP,35.1333,140.3,1611878865,9.0,49,40,9.77
Vanavara,RU,60.34,102.2797,1611878865,-41.61,79,15,1.88
Būlaevo,KZ,54.9056,70.4439,1611878865,-6.65,94,100,7.42
Pisco,PE,-13.7,-76.2167,1611878866,22.0,73,0,7.2
Mahajanga,MG,-15.7167,46.3167,1611878866,23.0,94,75,7.72
Mariāhu,IN,25.6167,82.6167,1611878866,7.2,66,0,1.71
Prudy,RU,57.5738,46.2718,1611878866,-9.33,97,99,3.32
Guangyuan,CN,32.442,105.823,1611878866,1.11,85,59,0.89
Kemin,KG,42.7846,75.6892,1611878866,-3.1,76,0,3.0
Hasaki,JP,35.7333,140.8333,1611878866,7.89,51,18,10.24
Teguise,ES,29.0605,-13.564,1611878867,15.0,94,20,1.03
Morón,AR,-34.6534,-58.6198,1611878867,25.56,65,0,4.12
Bathsheba,BB,13.2167,-59.5167,1611878867,26.0,65,40,5.66
Airai,TL,-8.9266,125.4092,1611878867,17.69,100,100,2.66
George Town,MY,5.4112,100.3354,1611878867,23.42,82,100,3.13
Matai,TZ,-8.3,31.5167,1611878867,14.15,90,43,1.04
Khatanga,RU,71.9667,102.5,1611878867,-41.28,74,0,1.21
Upernavik,GL,72.7868,-56.1549,1611878860,-24.9,86,27,5.12
Manta,EC,-0.95,-80.7333,1611878700,26.04,79,70,2.83
Jönköping,SE,57.7814,14.1562,1611878868,-6.0,93,75,5.14
Nikolskoye,RU,59.7035,30.7861,1611878868,-3.51,98,100,2.35
Sakakah,SA,29.9697,40.2064,1611878868,11.0,50,0,1.54
Rodrigues Alves,BR,-7.738,-72.6509,1611878868,23.68,86,79,1.12
Gravelbourg,CA,49.8834,-106.5512,1611878868,-6.22,95,74,3.47
Hobart,AU,-42.8794,147.3294,1611878868,18.33,55,75,6.17
Quatre Cocos,MU,-20.2078,57.7625,1611878869,25.69,76,7,3.35
San Miguel de Tucumán,AR,-26.8241,-65.2226,1611878761,29.0,65,75,2.06
Comodoro Rivadavia,AR,-45.8667,-67.5,1611878869,20.0,42,40,3.6
Ginda,IN,30.6945,78.4932,1611878869,2.42,52,0,3.32
Isangel,VU,-19.55,169.2667,1611878869,28.92,73,99,7.85
Senneterre,CA,48.3835,-77.2328,1611878869,-21.45,90,100,3.09
Husavik,IS,66.0449,-17.3389,1611878869,-9.32,87,80,4.51
Borogontsy,RU,62.6683,131.1683,1611878870,-45.04,75,97,0.79
Makkah al Mukarramah,SA,21.4267,39.8261,1611878870,22.44,82,69,1.92
Taldan,RU,53.6667,124.8,1611878870,-36.72,83,84,0.85
Banda Aceh,ID,5.5577,95.3222,1611878870,25.65,73,99,4.36
Gigmoto,PH,13.7796,124.39,1611878870,24.55,82,96,8.56
Makassar,ID,-5.14,119.4221,1611878870,27.1,80,100,3.59
Vallenar,CL,-28.5708,-70.7581,1611878870,20.47,55,0,1.8
São João da Barra,BR,-21.6403,-41.0511,1611878870,25.65,80,41,9.64
Riyadh,SA,24.6877,46.7219,1611878705,19.0,26,0,4.12
Olafsvik,IS,64.8945,-23.7142,1611878871,-1.4,87,75,1.25
San Cristobal,VE,7.7669,-72.225,1611878871,19.24,83,39,1.3
Coahuayana Viejo,MX,18.7333,-103.6833,1611878871,27.0,61,40,1.69
Mórrope,PE,-6.5417,-80.0111,1611878872,23.0,73,0,8.75
Naifaru,MV,5.4444,73.3657,1611878872,26.92,63,0,3.91
Flinders,AU,-34.5833,150.8552,1611878652,20.0,93,100,0.45
Liverpool,GB,53.4106,-2.9779,1611878872,9.0,93,90,3.6
Cambridge,CA,43.3601,-80.3127,1611878593,-7.78,92,90,4.63
Vila Velha,BR,-20.3297,-40.2925,1611878872,26.0,78,0,4.63
Sørland,NO,67.667,12.6934,1611878872,-1.67,90,23,5.88
Vredendal,ZA,-31.6683,18.5012,1611878872,13.91,80,0,1.69
Kalakamati,BW,-20.5929,27.3121,1611878873,20.74,84,100,4.72
Bay Roberts,CA,47.5999,-53.2648,1611878873,-5.0,79,69,0.89
Saint Paul Harbor,US,57.79,-152.4072,1611878873,2.0,75,90,8.23
Vung Tau,VN,10.346,107.0843,1611878577,23.61,74,38,4.04
Laem Sing,TH,12.4816,102.0738,1611878873,23.12,70,40,4.58
Lake City,US,30.1897,-82.6393,1611878873,9.0,57,1,1.54
Rio Verde de Mato Grosso,BR,-18.9181,-54.8442,1611878873,24.25,82,34,1.51
Erenhot,CN,43.6475,111.9767,1611878873,-12.73,88,20,6.5
Marabá,BR,-5.3686,-49.1178,1611878874,23.83,90,94,0.5
Oranjemund,NA,-28.55,16.4333,1611878874,16.79,80,0,8.43
Vieux-Habitants,GP,16.0589,-61.7659,1611878874,23.0,88,90,1.03
Tasiilaq,GL,65.6145,-37.6368,1611878874,-3.0,86,90,8.23
DeKalb County,US,33.7504,-84.2333,1611878874,3.89,48,1,5.66
Aksu,CN,41.1231,80.2644,1611878874,-8.01,83,0,1.81
Broome,US,42.2506,-75.833,1611878874,-10.0,67,90,7.2
Sorsk,RU,54.0033,90.2467,1611878874,-10.05,89,100,2.85
Bukama,CD,-9.2,25.85,1611878875,20.52,92,100,0.5
Beringovskiy,RU,63.05,179.3167,1611878875,-18.17,92,100,9.52
Benīganj,IN,27.2833,80.45,1611878875,7.01,62,0,2.4
Chui,UY,-33.6971,-53.4616,1611878616,20.76,73,18,4.94
Cherskiy,RU,68.75,161.3,1611878875,-34.19,85,61,1.19
Laguna,US,38.421,-121.4238,1611878653,10.56,87,90,2.57
Saldanha,ZA,-33.0117,17.9442,1611878875,16.68,87,0,5.27
Derzhavīnsk,KZ,51.1,66.3167,1611878876,-7.81,92,0,4.13
Nhulunbuy,AU,-12.2333,136.7667,1611878876,28.0,78,75,3.6
Kavaratti,IN,10.5669,72.642,1611878876,26.67,70,12,3.62
Cumbal,CO,0.9088,-77.7915,1611878876,9.5,97,99,1.0
Palmer,US,42.1584,-72.3287,1611878876,-7.67,88,68,6.44
Skibbereen,IE,51.55,-9.2667,1611878876,8.0,93,75,7.2
Katete,UG,-0.7818,29.7544,1611878877,17.58,66,79,1.44
Tulun,RU,54.5611,100.5792,1611878877,-31.79,85,97,1.05
Waipawa,NZ,-41.4122,175.5153,1611878877,16.11,59,20,9.26
Hong Kong,HK,22.2855,114.1577,1611878638,14.78,57,17,4.31
Belaya Gora,RU,68.5333,146.4167,1611878877,-29.81,87,100,1.63
Eilat,IL,29.5581,34.9482,1611878877,10.09,55,0,0.78
Narrabri,AU,-30.3167,149.7833,1611878878,28.0,39,62,1.54
Acapulco de Juárez,MX,16.8634,-99.8901,1611878878,29.0,61,75,3.6
Fort Nelson,CA,58.8053,-122.7002,1611878878,-22.0,71,20,1.55
Santa Cruz de la Sierra,BO,-17.8,-63.1667,1611878878,22.59,90,100,5.66
Mehamn,NO,71.0357,27.8492,1611878878,-5.41,92,100,9.34
Kaiyuan,CN,23.6977,103.3037,1611878878,10.55,75,95,1.14
Chara,RU,56.9064,118.2631,1611878878,-37.18,77,100,0.17
Yala,TH,6.3333,101.25,1611878831,20.91,92,100,1.17
St. George's,GD,12.0564,-61.7485,1611878879,26.0,73,20,5.14
Quime,BO,-16.9833,-67.2167,1611878879,12.77,72,91,2.18
Whitianga,NZ,-36.8333,175.7,1611878879,21.56,42,3,0.91
Hay River,CA,60.8156,-115.7999,1611878879,-23.0,64,71,2.06
Sobolevo,RU,54.4299,31.8996,1611878879,-3.48,98,95,2.45
Clonakilty,IE,51.6231,-8.8706,1611878879,8.89,93,75,7.2
Villa Bruzual,VE,9.3328,-69.1208,1611878879,26.59,58,23,4.69
Te Anau,NZ,-45.4167,167.7167,1611878880,10.31,67,85,1.27
Alice Springs,AU,-23.7,133.8833,1611878880,30.0,42,0,4.63
Nome,US,64.5011,-165.4064,1611878880,-11.0,67,90,3.6
Port-Gentil,GA,-0.7193,8.7815,1611878880,26.0,94,20,1.54
Chanika,TZ,-5.4167,38.0167,1611878880,21.55,92,90,0.97
Yerbogachën,RU,61.2767,108.0108,1611878880,-41.69,79,41,2.19
Svarstad,NO,59.399,9.9698,1611878881,-10.46,89,14,1.26
Natal,BR,-5.795,-35.2094,1611878851,27.0,74,40,5.14
Cabrera,DO,19.6426,-69.9049,1611878882,27.0,74,20,1.43
Kaeo,NZ,-35.1,173.7833,1611878695,23.89,42,3,4.92
Safaga,EG,26.7292,33.9365,1611878882,15.0,36,0,6.17
Morehead,US,37.2711,-87.1764,1611878882,-1.67,59,1,1.77
Hirara,JP,24.8,125.2833,1611878828,13.64,76,14,13.23
San Quintín,MX,30.4833,-115.95,1611878882,15.4,58,92,3.71
Gazli,UZ,40.1333,63.45,1611878882,2.11,76,0,6.06
Storm Lake,US,42.6411,-95.2097,1611878883,-4.0,100,90,7.2
Arraial do Cabo,BR,-22.9661,-42.0278,1611878773,25.48,81,99,11.38
Alekseyevskaya,RU,50.2896,42.1845,1611878883,0.0,91,100,1.34
Kungurtug,RU,50.5994,97.5228,1611878883,-12.03,90,100,1.2
Āreka,ET,7.0667,37.7,1611878883,15.8,38,34,2.21
Monastyrshchina,RU,54.3496,31.838,1611878883,-3.49,98,97,2.35
Chiredzi,ZW,-21.05,31.6667,1611878883,22.71,94,100,4.49
Zatoka,UA,46.0725,30.4654,1611878883,-2.0,100,40,5.95
Burnie,AU,-41.0667,145.9167,1611878883,15.56,72,100,7.15
Chinsali,ZM,-10.5414,32.0816,1611878884,17.39,94,99,0.93
Lavrentiya,RU,65.5833,-171.0,1611878884,-24.59,84,100,6.22
Inuvik,CA,68.3499,-133.7218,1611878884,-29.0,76,13,2.57
Manggar,ID,-2.8833,108.2667,1611878834,25.39,87,100,5.58
Dingle,PH,10.9995,122.6711,1611878670,23.2,90,88,4.44
Maringá,BR,-23.4253,-51.9386,1611878885,21.58,94,99,3.19
Kandrian,PG,-6.2167,149.55,1611878885,30.38,66,100,6.05
Novi Pazar,RS,43.1367,20.5122,1611878885,1.06,80,93,1.25
Porto Nacional,BR,-10.7081,-48.4172,1611878885,24.0,69,75,3.6
Bafra,TR,41.5678,35.9069,1611878885,4.0,93,90,2.06
Alta Floresta,BR,-9.8756,-56.0861,1611878885,22.89,95,65,1.14
Saint Lawrence,MT,36.0553,14.204,1611878885,15.0,88,75,6.69
Sukumo,JP,32.9333,132.7333,1611878886,2.14,83,77,9.31
Jacala,MX,21.0167,-99.1833,1611878886,9.72,85,99,1.69
Rawson,AR,-43.3002,-65.1023,1611878886,16.29,59,58,6.71
Puerto Cabezas,NI,14.0351,-83.3888,1611878886,24.82,82,59,5.37
Caçapava do Sul,BR,-30.5122,-53.4914,1611878886,19.38,86,100,3.19
São Gabriel da Cachoeira,BR,-0.1303,-67.0892,1611878886,24.39,89,100,0.52
Severnyy-Kospashskiy,RU,59.0925,57.8008,1611878886,-8.49,98,100,1.71
Calbuco,CL,-41.768,-73.1273,1611878887,15.0,82,75,2.57
Coquimbo,CL,-29.9533,-71.3436,1611878836,17.47,76,0,1.65
Luján,AR,-34.5703,-59.105,1611878887,23.33,84,100,3.09
Tuatapere,NZ,-46.1333,167.6833,1611878888,8.89,80,97,3.58
Felsőszentiván,HU,46.1971,19.1869,1611878888,2.88,85,100,6.93
Padang,ID,-0.9492,100.3543,1611878888,24.0,94,75,1.54
Lagos de Moreno,MX,21.35,-101.9167,1611878320,24.0,27,40,4.12
Myitkyina,MM,25.3833,97.4,1611878888,11.66,61,0,1.32
Izumo,JP,35.3667,132.7667,1611878888,0.0,74,75,8.23
Iranshahr,IR,27.2025,60.6848,1611878889,8.39,37,2,0.72
Sokoto,NG,13.0609,5.239,1611878889,21.85,21,0,6.45
Saint-Augustin,CA,51.226,-58.6502,1611878889,-10.32,93,85,3.47
Nanortalik,GL,60.1432,-45.2371,1611878889,-0.64,91,100,3.6
Muli,MV,2.9167,73.5667,1611878889,26.9,79,43,6.49
Nha Trang,VN,12.25,109.1833,1611878889,20.87,82,84,4.99
Maţāy,EG,28.419,30.7792,1611878889,8.9,51,2,3.83
Mumbwa,ZM,-14.9783,27.0619,1611878889,18.38,94,100,2.17
Dao,PH,11.3937,122.6856,1611878889,24.11,87,84,4.37
Poum,NC,-20.2333,164.0167,1611878890,27.37,77,36,3.48
Kazanskaya,RU,45.4106,40.4361,1611878890,1.97,85,100,3.72
Hailey,US,43.5196,-114.3153,1611878890,1.0,86,90,2.06
Hailin,CN,44.5833,129.4167,1611878890,-28.21,83,46,1.22
Sioux Lookout,CA,50.1001,-91.917,1611878890,-19.68,91,56,1.26
Kruševac,RS,43.58,21.3339,1611878777,1.0,80,0,0.51
La Ronge,CA,55.1001,-105.2842,1611878890,-15.07,94,100,2.87
Shimoda,JP,34.6667,138.95,1611878890,7.0,57,20,9.26
Paamiut,GL,61.994,-49.6678,1611878891,1.31,80,100,3.61
Gravdal,NO,68.1214,13.5031,1611878891,-4.27,90,0,4.21
Shizunai-furukawachō,JP,42.3339,142.3669,1611878891,1.3,88,90,10.06
Aranos,NA,-24.1333,19.1167,1611878891,24.91,31,73,4.57
Dikson,RU,73.5069,80.5464,1611878891,-35.6,79,63,1.45
Alpena,US,45.0617,-83.4327,1611878892,-6.67,63,90,4.63
Ponta do Sol,PT,32.6667,-17.1,1611878892,14.44,96,33,1.34
Santa Marta,CO,11.2408,-74.199,1611878892,27.22,67,26,7.66
Meulaboh,ID,4.1363,96.1285,1611878892,23.94,86,100,2.08
Saint Simons,US,31.1352,-81.3901,1611878892,8.89,61,0,3.66
Ambunti,PG,-4.2365,142.8448,1611878892,27.85,79,84,1.32
Destin,US,30.3935,-86.4958,1611878604,10.18,58,14,5.4
Buraidah,SA,26.326,43.975,1611878799,17.0,72,75,1.54
Yungay,PE,-9.1383,-77.7436,1611878893,15.02,58,100,0.58
Tyup,KG,42.7276,78.3648,1611878893,-7.86,81,1,1.3
Tubualá,PA,9.5167,-79.0333,1611878893,28.0,61,40,4.63
Nuuk,GL,64.1835,-51.7216,1611878893,-1.0,64,0,7.2
Guerrero Negro,MX,27.9769,-114.0611,1611878893,18.73,44,0,5.48
Dingcheng,CN,32.1272,115.0394,1611878831,2.77,71,0,1.87
Westport,US,41.1415,-73.3579,1611878893,-3.89,42,1,5.14
Sambava,MG,-14.2667,50.1667,1611878893,25.12,85,74,1.26
Bulungu,CD,-4.55,18.6,1611878830,21.74,92,68,0.08
Terpinnya,UA,46.9697,35.4197,1611878894,1.05,87,99,9.56
Geraldton,AU,-28.7667,114.6,1611878894,28.0,34,0,5.14
Tignère,CM,7.3667,12.65,1611878894,18.76,25,75,0.81
Uribia,CO,11.7139,-72.266,1611878894,26.98,62,18,4.93
Moindou,NC,-21.6924,165.677,1611878894,29.0,65,0,9.77
Sretensk,RU,52.2453,117.7093,1611878894,-29.39,84,100,1.39
Hofn,IS,64.2539,-15.2082,1611878895,-1.61,89,8,2.58
Matagami,CA,49.7502,-77.6328,1611878895,-19.0,84,90,3.6
Raduzhny,RU,62.0961,77.475,1611878895,-27.55,88,98,1.06
Grindavik,IS,63.8424,-22.4338,1611878895,-5.0,80,40,3.09
Las Matas de Farfán,DO,18.8731,-71.5166,1611878895,21.31,69,18,1.62
Turuvekere,IN,13.1642,76.6667,1611878895,15.72,95,16,2.46
Dourbali,TD,11.8091,15.8632,1611878895,22.88,16,0,6.17
Tevriz,RU,57.509,72.4042,1611878895,-3.1,98,100,4.27
Ajuchitlán,MX,20.7167,-100.0167,1611878896,16.0,51,75,6.17
Terrace,CA,54.5163,-128.6035,1611878896,-6.0,53,20,8.23
Sainte-Martine,CA,45.2501,-73.7992,1611878896,-10.0,73,100,4.12
Klaksvík,FO,62.2266,-6.589,1611878896,0.0,69,8,4.63
Bestöbe,KZ,52.4994,73.0975,1611878896,-5.6,93,98,8.55
Ilo,PE,-17.6394,-71.3375,1611878896,20.31,76,0,1.11
Shingū,JP,33.7333,135.9833,1611878896,3.0,52,40,10.8
Takoradze,GH,4.8845,-1.7554,1611878686,25.72,88,28,2.28
Balkanabat,TM,39.5108,54.3671,1611878897,12.14,38,74,4.5
Clyde River,CA,70.4692,-68.5914,1611878897,-24.5,80,0,1.64
Kjøllefjord,NO,70.9457,27.3465,1611878897,-5.66,91,100,10.0
Odesa,UA,46.4775,30.7326,1611878897,-0.98,93,100,5.55
Leningradskiy,RU,69.3833,178.4167,1611878897,-28.84,85,75,1.97
Egvekinot,RU,66.3167,-179.1667,1611878897,-27.9,84,73,9.85
Bethel,US,41.3712,-73.414,1611878757,-6.0,42,1,7.2
Rocha,UY,-34.4833,-54.3333,1611878898,22.08,50,11,6.03
La Tuque,CA,47.4334,-72.7824,1611878898,-15.52,91,100,4.2
Pozo Colorado,PY,-23.4923,-58.7972,1611878898,28.65,61,71,3.61
Tual,ID,-5.6667,132.75,1611878833,28.5,77,100,7.45
Khor,RU,47.8861,134.9464,1611878898,-22.08,87,100,1.86
Homer,US,59.6425,-151.5483,1611878898,1.11,80,90,2.06
Gornoye Loo,RU,43.7129,39.6049,1611878899,5.0,87,90,1.11
Yar-Sale,RU,66.8333,70.8333,1611878899,-33.26,85,100,4.35
Worland,US,44.0169,-107.9554,1611878899,4.54,66,4,6.31
Caravelas,BR,-17.7125,-39.2481,1611878898,24.7,83,0,2.79
Chichimila,MX,20.6167,-88.2167,1611878899,24.17,79,41,2.85
Jämsä,FI,61.8642,25.19,1611878899,-8.0,100,90,2.57
Batagay,RU,67.6333,134.6333,1611878899,-44.7,74,43,0.67
Wakkanai,JP,45.4094,141.6739,1611878899,-4.21,97,100,16.83
Beloha,MG,-25.1667,45.05,1611878838,23.84,93,30,1.95
Praia,CV,14.9215,-23.5087,1611878900,22.0,64,0,5.14
Watertown,US,42.3709,-71.1828,1611878900,-2.78,54,20,7.72
Ilinge,ZA,-31.9768,27.0427,1611878900,11.22,98,10,0.77
Ngunguru,NZ,-35.6167,174.5,1611878900,23.33,43,6,4.47
Evensk,RU,61.95,159.2333,1611878900,-19.96,85,100,5.4
Tshikapa,CD,-6.4167,20.8,1611878900,21.28,93,98,1.18
Lentini,IT,37.2855,14.9996,1611878900,10.98,85,7,5.91
Beira,MZ,-19.8436,34.8389,1611878812,26.44,84,8,3.44
Atar,MR,20.5169,-13.0499,1611878786,19.73,26,0,4.07
Kavieng,PG,-2.5744,150.7967,1611878901,29.36,70,65,4.22
Caniço,PT,32.6333,-16.85,1611878901,16.64,78,37,2.55
Mezhdurechensk,RU,53.6942,88.0603,1611878901,-5.25,96,100,4.36
Timmins,CA,48.4669,-81.3331,1611878865,-17.0,85,75,2.57
Provideniya,RU,64.3833,-173.3,1611878901,-12.0,72,0,8.0
Prince Rupert,CA,54.3161,-130.3201,1611878901,2.0,47,1,1.38
Vidim,RU,56.4088,103.1106,1611878901,-38.45,80,1,0.97
Youghal,IE,51.95,-7.8506,1611878901,8.89,93,75,7.2
Saucillo,MX,28.0167,-105.2833,1611878902,19.97,25,0,4.9
Luanda,AO,-8.8368,13.2343,1611878875,26.0,83,40,4.12
Kralendijk,BQ,12.15,-68.2667,1611878902,26.0,73,10,3.6
Porto-Novo,BJ,6.4965,2.6036,1611878902,29.0,84,20,5.14
Monaghan,IE,54.25,-6.9667,1611878902,5.54,94,45,3.66
Krasnosel'kup,RU,65.7,82.4667,1611878902,-34.31,83,100,6.44
Revelstoke,CA,50.9832,-118.2023,1611878902,2.13,81,100,0.48
Haibara-akanedai,JP,34.5333,135.95,1611878902,-1.46,83,78,7.65
Port Blair,IN,11.6667,92.75,1611878903,25.89,84,4,3.54
Rumonge,BI,-3.9736,29.4386,1611878903,21.55,70,47,1.45
Sokoni,TZ,-6.4333,39.55,1611878903,27.42,79,22,5.65
Kasongo-Lunda,CD,-6.4667,16.8167,1611878903,21.5,89,71,0.63
Sungai Penuh,ID,-2.0833,101.3833,1611878903,17.27,95,100,1.41
Vicuña,CL,-30.0319,-70.7081,1611878903,16.0,88,40,2.57
Tomari,RU,47.7658,142.0683,1611878903,-15.25,90,100,7.77
Beidao,CN,34.5686,105.8933,1611878904,-0.24,87,79,0.71
Sola,VU,-13.8833,167.55,1611878904,28.3,73,100,2.08
Taiping,MY,4.85,100.7333,1611878904,21.24,89,100,1.49
Port Hardy,CA,50.6996,-127.4199,1611878904,5.0,70,20,2.57
Davie,US,26.0629,-80.2331,1611878769,17.0,51,1,5.14
Aného,TG,6.2333,1.6,1611878904,28.0,83,20,4.12
Balancán,MX,17.8,-91.5333,1611878904,23.58,85,81,3.69
Ancud,CL,-41.8697,-73.8203,1611878904,15.0,77,75,1.54
Cockburn Town,TC,21.4612,-71.1419,1611878905,24.99,73,24,6.36
Karaton,ID,-6.3424,106.1045,1611878905,22.75,92,100,0.28
Iquique,CL,-20.2208,-70.1431,1611878905,22.0,68,20,4.63
Tura,IN,25.5198,90.2201,1611878905,13.17,63,0,1.28
Puerto Colombia,CO,10.9878,-74.9547,1611878656,25.0,83,0,12.0
Kiryat Gat,IL,31.61,34.7642,1611878905,11.11,100,29,0.89
Preobrazheniye,RU,42.9019,133.9064,1611878905,-12.46,87,100,8.09
Ben Tre,VN,10.2333,106.3833,1611878905,21.79,85,57,0.94
West Wendover,US,40.7391,-114.0733,1611878906,7.0,57,1,1.42
Marzuq,YE,14.4,46.4667,1611878906,13.41,39,0,1.68
Gumdag,TM,39.2061,54.5906,1611878906,6.85,59,63,6.21
Mīnāb,IR,27.1467,57.0801,1611878900,14.41,57,19,0.44
Faya,SA,18.3851,42.4509,1611878873,11.0,46,0,1.79
Saquena,PE,-4.6667,-73.5167,1611878906,24.34,94,96,0.85
Fairbanks,US,64.8378,-147.7164,1611878683,-17.28,90,98,0.78
Owak,PH,10.55,123.7,1611878907,25.74,76,77,5.87
Svetlaya,RU,46.5389,138.3297,1611878907,-11.83,94,100,11.91
Saint-Pierre,RE,-21.3393,55.4781,1611878907,25.82,67,3,0.49
Kuala Terengganu,MY,5.3302,103.1408,1611878907,24.0,94,20,0.51
Tabou,CI,4.423,-7.3528,1611878907,25.17,89,38,1.93
Tongliao,CN,43.6125,122.2653,1611878907,-26.81,80,0,2.14
Souillac,MU,-20.5167,57.5167,1611878709,24.0,94,40,0.51
Lyuban',BY,52.7985,28.0048,1611878908,-7.23,97,100,3.18
Eldorado,BR,-23.7869,-54.2836,1611878908,22.05,94,84,3.09
Lakatoro,VU,-16.0999,167.4164,1611878908,29.8,70,100,1.01
Pasni,PK,25.2631,63.471,1611878908,18.89,27,0,3.59
Senj,HR,44.9894,14.9058,1611878908,7.86,76,100,6.19
Ozernovskiy,RU,51.5,156.5167,1611878908,-3.66,95,100,3.05
Botwood,CA,49.1499,-55.3482,1611878909,-8.83,96,78,2.31
Hanyang,CN,32.1371,105.5126,1611878909,1.11,85,93,0.89
Dordrecht,NL,51.81,4.6736,1611878909,8.89,96,100,0.89
Zhicheng,CN,30.2956,111.5047,1611878909,3.89,91,0,0.7
Talnakh,RU,69.4865,88.3972,1611878909,-36.03,72,0,1.7
Lapua,FI,62.9693,23.0088,1611878909,-6.67,93,90,1.54
Yulara,AU,-25.2406,130.9889,1611878672,30.0,42,100,5.66
Kichmengskiy Gorodok,RU,59.9816,45.7854,1611878909,-3.47,98,100,3.34
Kumluca,TR,36.3703,30.2869,1611878909,7.63,54,13,3.1
Juneau,US,58.3019,-134.4197,1611878910,-6.0,58,90,2.06
Katangli,RU,51.7102,143.2326,1611878911,-20.92,90,45,2.67
Khovd,MN,48.0056,91.6419,1611878911,-15.57,83,0,0.62
Marolambo,MG,-20.05,48.1167,1611878911,20.97,92,6,0.77
Sisimiut,GL,66.9395,-53.6735,1611878911,-12.39,79,0,4.72
Seneffe,BE,50.5313,4.263,1611878911,10.0,93,75,4.63
Mala,PE,-12.6581,-76.6308,1611878912,22.16,73,31,1.66
Eureka,US,40.8021,-124.1637,1611878665,10.0,73,96,2.49
Constitución,CL,-35.3333,-72.4167,1611878912,16.09,82,73,3.84
Amalāpuram,IN,16.5833,82.0167,1611878912,22.45,84,54,1.27
Bakchar,RU,57.0186,82.0711,1611878914,-4.24,98,100,5.87
Rakkestad,NO,59.4251,11.3454,1611878914,-10.0,90,0,0.95
Port Hedland,AU,-20.3167,118.5667,1611878914,30.15,59,0,4.72
Parabel',RU,58.6978,81.4825,1611878915,-13.24,96,100,1.23
Turukhansk,RU,65.8167,87.9833,1611878915,-36.2,78,54,4.66
Pangnirtung,CA,66.1451,-65.7125,1611878915,-22.0,77,1,3.09
Venado Tuerto,AR,-33.7456,-61.9688,1611878915,22.22,91,100,1.79
Naantali,FI,60.4674,22.0243,1611878916,-8.31,96,67,3.41
Raudeberg,NO,61.9875,5.1352,1611878916,0.56,71,99,9.24
Khandyga,RU,62.6667,135.6,1611878916,-47.9,71,86,0.51
Havre-St-Pierre,CA,50.2334,-63.5986,1611878916,-11.0,67,1,4.12
Oktyabr'skoye,RU,43.0645,44.7417,1611878917,4.0,93,100,4.0
Neuquén,AR,-38.9516,-68.0591,1611878917,22.0,33,0,4.63
Nioro,GM,13.35,-15.75,1611878917,21.83,18,8,0.52
Boa Vista,BR,2.8197,-60.6733,1611878837,27.38,54,34,5.55
Wisconsin Rapids,US,44.3836,-89.8174,1611878917,-8.89,62,75,2.06
Salalah,OM,17.0151,54.0924,1611878673,20.0,64,0,1.03
Dalbandin,PK,28.8947,64.4101,1611878918,6.23,43,2,1.59
İdil,TR,37.3411,41.8895,1611878918,5.08,86,99,1.86
Kokopo,PG,-4.352,152.2633,1611878919,29.22,70,100,4.81
Pacific Grove,US,36.6177,-121.9166,1611878665,12.0,82,90,2.57
Kidal,ML,18.4411,1.4078,1611878654,19.01,25,0,6.18
Jiazi,CN,22.8779,116.067,1611878919,13.42,66,1,7.78
Moroni,KM,-11.7022,43.2551,1611878919,26.76,73,8,2.92
Pulgaon,IN,20.7333,78.3333,1611878919,18.49,58,6,2.41
Kuliyapitiya,LK,7.4688,80.0401,1611878919,22.3,90,82,2.26
Whitehorse,CA,60.7161,-135.0538,1611878919,-21.8,84,95,3.06
Hamilton,US,39.1834,-84.5333,1611878629,-2.0,59,75,3.6
Dudinka,RU,69.4058,86.1778,1611878648,-37.3,75,7,2.46
Estepona,ES,36.4276,-5.1459,1611878920,15.0,94,72,2.57
Cortez,US,37.3489,-108.5859,1611878920,4.44,52,1,3.24
Imatra,FI,61.1719,28.7524,1611878920,-0.56,94,100,0.45
Biak,ID,-0.9131,122.8766,1611878920,26.8,70,97,1.77
Marawi,PH,7.9986,124.2928,1611878920,25.0,88,100,1.5
Mahibadhoo,MV,3.7833,72.9667,1611878921,26.69,75,9,5.61
Mayo,US,38.8876,-76.5119,1611878909,0.0,43,1,4.63
Uauá,BR,-9.8414,-39.4817,1611878921,25.21,63,100,6.66
Pringsewu,ID,-5.3582,104.9744,1611878793,22.73,92,97,0.63
Chumikan,RU,54.7183,135.315,1611878921,-23.99,87,100,4.54
Salinópolis,BR,-0.6136,-47.3561,1611878921,26.34,83,98,5.19
Rafai,CF,4.95,23.9167,1611878921,22.03,71,99,0.54
Şabrātah,LY,32.7933,12.4885,1611878921,14.61,63,0,5.29
Port Moresby,PG,-9.4431,147.1797,1611878922,26.0,83,75,7.2
North Bend,US,43.4065,-124.2243,1611878707,8.41,83,35,0.99
Portland,US,45.5234,-122.6762,1611878440,8.33,76,90,0.51
Huazhou,CN,21.6333,110.5833,1611878922,14.89,62,8,1.41
Mineiros,BR,-17.5694,-52.5511,1611878923,21.4,88,95,2.07
Noumea,NC,-22.2763,166.4572,1611878884,29.0,65,0,9.77
Thinadhoo,MV,0.5333,72.9333,1611878923,27.67,73,89,4.65
Flin Flon,CA,54.7682,-101.865,1611878923,-15.0,78,90,4.12
Natitingou,BJ,10.3042,1.3796,1611878923,25.57,16,0,4.19
San Rafael,AR,-34.6177,-68.3301,1611878923,24.47,26,69,3.8
Tra Vinh,VN,9.9347,106.3453,1611878643,22.31,83,49,2.42
Puerto Madryn,AR,-42.7692,-65.0385,1611878655,20.44,36,83,4.54
Assiniboia,CA,49.6334,-105.9845,1611878887,-8.0,79,100,4.63
Rogatica,BA,43.8008,19.0025,1611878924,0.0,93,40,1.54
Chukhloma,RU,58.7525,42.6825,1611878924,-3.82,98,100,3.52
Americus,US,32.0724,-84.2327,1611878848,11.0,40,1,3.09
Maragheh,IR,37.3917,46.2398,1611878924,3.09,81,97,2.91
Temixco,MX,18.85,-99.2333,1611878925,28.0,30,75,3.09
Marion,US,39.7684,-86.1555,1611878925,-2.97,83,16,2.35
Richards Bay,ZA,-28.783,32.0377,1611878924,20.64,88,100,2.59
Chapais,CA,49.7834,-74.8492,1611878925,-20.76,91,100,4.35
Caborca,MX,30.5838,-111.101,1611878926,20.17,25,30,5.25
Isparta Province,TR,38.0,31.0,1611878670,-4.56,96,95,1.4
Udachny,RU,66.4167,112.4,1611878926,-40.83,79,77,1.65
Ayacucho,PE,-13.1583,-74.2239,1611878926,14.1,74,72,4.17
Słupsk,PL,54.4641,17.0287,1611878373,-1.03,97,100,6.74
Cayenne,GF,4.9333,-52.3333,1611878926,25.0,100,75,0.51
Buchanan,LR,5.8808,-10.0467,1611878926,25.0,94,6,3.46
Gaza,PS,31.5,34.4667,1611878927,12.82,62,32,7.42
Montepuez,MZ,-13.1256,38.9997,1611878927,20.84,100,99,1.6
Bella Vista,US,36.4295,-94.2316,1611878927,5.0,60,1,2.06
Papetoai,PF,-17.4961,-149.8729,1611878792,29.0,74,40,1.03
Price,US,39.5994,-110.8107,1611878927,1.0,55,1,1.54
Berezovyy,RU,51.6667,135.7,1611878927,-25.44,81,10,0.82
Dunedin,NZ,-45.8742,170.5036,1611878927,11.67,69,91,11.18
Malatya Province,TR,38.5,38.0,1611878927,1.0,75,75,1.03
Provincia di Oristano,IT,39.9,8.6,1611878928,14.0,82,20,6.17
Esso,RU,55.9333,158.7,1611878928,-14.91,75,0,1.17
Vestmanna,FO,62.1564,-7.1664,1611878928,0.0,69,19,4.63
Ambilobe,MG,-13.2,49.05,1611878928,23.29,92,81,1.04
Nový Bydžov,CZ,50.2415,15.4908,1611878928,1.11,100,90,1.54
Maraã,BR,-1.8333,-65.3667,1611878928,24.07,95,82,0.82
Vostok,RU,46.4856,135.8833,1611878928,-21.47,91,100,1.89
Honiara,SB,-9.4333,159.95,1611878929,26.92,83,100,4.32
Fallon,US,39.4735,-118.7774,1611878929,9.0,49,90,9.26
Gaozhou,CN,21.9392,110.8461,1611878929,14.91,59,29,1.36
